[
  { "name":"Helsingør Nordhavn", "address":"Nordhavnsvej, 3000 Helsingør", "lat":56.0390, "lng":12.6130, "note":"Gratis på udvalgte tider" },
  { "name":"Kronborg Område", "address":"Kronborg 2 C, 3000 Helsingør", "lat":56.0385, "lng":12.6201, "note":"Gratis zoner tæt på slottet (tjek skiltning)" },
  { "name":"Snekkersten Strand", "address":"Strandvejen, 3070 Snekkersten", "lat":56.0115, "lng":12.5790, "note":"Offentlig strandparkering" },
  { "name":"Espergærde Havn", "address":"Havnen, 3060 Espergærde", "lat":55.9892, "lng":12.5557, "note":"Gratis uden for sæson" },
  { "name":"Humlebæk Strand", "address":"Strandvejen, 3050 Humlebæk", "lat":55.9690, "lng":12.5330, "note":"Gratis strandparkering uden for sæson" },
  { "name":"Nivå Havn", "address":"Havnen 1, 2990 Nivå", "lat":55.9434, "lng":12.5050, "note":"Ofte gratis efter 18" },
  { "name":"Hørsholm Parkvej", "address":"Parkvej, 2970 Hørsholm", "lat":55.8750, "lng":12.4980, "note":"Offentlige p-pladser" },

  { "name":"Amager Strandpark", "address":"Amager Strandvej, 2300 København S", "lat":55.6469, "lng":12.5950, "note":"Stor p‑plads ved stranden" },
  { "name":"Amagerbro Syd", "address":"Amagerbrogade, 2300 København S", "lat":55.6565, "lng":12.6120, "note":"Gratis på udvalgte tider (tjek skiltning)" },
  { "name":"Ørestad Nord", "address":"Ørestad Boulevard, 2300 København S", "lat":55.6295, "lng":12.5765, "note":"Gratis zoner på bestemte tidspunkter" },
  { "name":"København NV Offentlig", "address":"Frederikssundsvej, 2400 København NV", "lat":55.7048, "lng":12.5282, "note":"Gratis i sidegader (tjek skiltning)" },
  { "name":"København SV Havnepark", "address":"Sluseholmen, 2450 København SV", "lat":55.6460, "lng":12.5510, "note":"Gratis aftener og weekend" },
  { "name":"Brøndby Stadion", "address":"Brøndby Stadion 1, 2605 Brøndby", "lat":55.6480, "lng":12.4180, "note":"Gratis ved kampdage" },
  { "name":"Roskilde Havn", "address":"Strandgade, 4000 Roskilde", "lat":55.6420, "lng":12.0830, "note":"Stor p‑plads nær havnen" },
  { "name":"Roskilde Nord", "address":"Hyrdehøj, 4000 Roskilde", "lat":55.6610, "lng":12.0690, "note":"Gratis zoner — tjek skiltning" },
  { "name":"Hillerød Slotssø", "address":"Slotsgade, 3400 Hillerød", "lat":55.9270, "lng":12.3130, "note":"Gratis uden for zonetider" },
  { "name":"Frederikssund Havnevej", "address":"Havnevej, 3600 Frederikssund", "lat":55.8365, "lng":12.0680, "note":"Offentlig p‑plads ved havnen" },

  { "name":"Odense Havn", "address":"Havnegade, 5000 Odense", "lat":55.4038, "lng":10.3883, "note":"Gratis efter kl. 18" },
  { "name":"Odense Zoo Nord", "address":"Søndre Boulevard, 5000 Odense", "lat":55.3825, "lng":10.3860, "note":"Gratis zoner nær parken" },
  { "name":"Nyborg Strand", "address":"Strandvænget, 5800 Nyborg", "lat":55.3090, "lng":10.7900, "note":"Offentlig strandparkering" },

  { "name":"Tangkrogen", "address":"Marselisborg Havnevej 4, 8000 Aarhus", "lat":56.1520, "lng":10.2030, "note":"Stor p‑plads ved havnen" },
  { "name":"Ceres Park", "address":"Stadion Allé 70, 8000 Aarhus", "lat":56.1515, "lng":10.2050, "note":"Gratis i weekenden" },
  { "name":"Aarhus Ø Havne", "address":"Aarhus Ø, 8000 Aarhus", "lat":56.1710, "lng":10.2280, "note":"Gratis aften i udvalgte zoner" },
  { "name":"Randers Havn", "address":"Havnevej, 8900 Randers", "lat":56.4600, "lng":10.0400, "note":"Offentlig havneparkering" },
  { "name":"Vejle Fjordpark", "address":"Fjordparken, 7100 Vejle", "lat":55.7080, "lng":9.5430, "note":"Gratis efter 18" },
  { "name":"Esbjerg Strand", "address":"Strandpromenaden, 6700 Esbjerg", "lat":55.4737, "lng":8.4200, "note":"Offentlig p‑plads, ofte ledig" },
  { "name":"Aalborg Vestby", "address":"Nørresundby nær Broen, 9000 Aalborg", "lat":57.0500, "lng":9.9210, "note":"Gratis zoner – tjek skiltning" },
  { "name":"Kolding Marina", "address":"Marinavej, 6000 Kolding", "lat":55.4900, "lng":9.4800, "note":"Gratis efter 18" },
  { "name":"Silkeborg Søfront", "address":"Sejsvej, 8600 Silkeborg", "lat":56.1720, "lng":9.5680, "note":"Gratis zoner nær søerne" },
  { "name":"Horsens Havn", "address":"Havnegade, 8700 Horsens", "lat":55.8580, "lng":9.8460, "note":"Offentlig p‑plads ved havnen" }
]
